[36m0 ms[0m	|1|	has taken a fork
[36m0 ms[0m	|1|	is eating
[36m0 ms[0m	|3|	has taken a fork
[36m0 ms[0m	|3|	is eating
time_sec_start = 1685973701
time_sec_end = 1685973701
time_usec_start = 944559
time_usec_end = 944854

time_sec = 0
time_usec = 295
time = 0

1 tracker = 0
time_sec_start = 1685973701
time_sec_end = 1685973701
time_usec_start = 944562
time_usec_end = 945502

time_sec = 0
time_usec = 940
time = 0

3 tracker = 0
time_sec_start = 1685973701
time_sec_end = 1685973701
time_usec_start = 944559
time_usec_end = 946169

time_sec = 0
time_usec = 1610
time = 1

1 tracker = 1
time_sec_start = 1685973701
time_sec_end = 1685973701
time_usec_start = 944562
time_usec_end = 946826

time_sec = 0
time_usec = 2264
time = 2

3 tracker = 2
time_sec_start = 1685973701
time_sec_end = 1685973701
time_usec_start = 944559
time_usec_end = 947463

time_sec = 0
time_usec = 2904
time = 2

1 tracker = 2
time_sec_start = 1685973701
time_sec_end = 1685973701
time_usec_start = 944562
time_usec_end = 948124

time_sec = 0
time_usec = 3562
time = 3

3 tracker = 3
time_sec_start = 1685973701
time_sec_end = 1685973701
time_usec_start = 944559
time_usec_end = 948795

time_sec = 0
time_usec = 4236
time = 4

1 tracker = 4
time_sec_start = 1685973701
time_sec_end = 1685973701
time_usec_start = 944562
time_usec_end = 949540

time_sec = 0
time_usec = 4978
time = 4

3 tracker = 4
time_sec_start = 1685973701
time_sec_end = 1685973701
time_usec_start = 944559
time_usec_end = 950339

time_sec = 0
time_usec = 5780
time = 5

1 tracker = 5
time_sec_start = 1685973701
time_sec_end = 1685973701
time_usec_start = 944562
time_usec_end = 951224

time_sec = 0
time_usec = 6662
time = 6

3 tracker = 6
time_sec_start = 1685973701
time_sec_end = 1685973701
time_usec_start = 944559
time_usec_end = 952103

time_sec = 0
time_usec = 7544
time = 7

1 tracker = 7
time_sec_start = 1685973701
time_sec_end = 1685973701
time_usec_start = 944562
time_usec_end = 953113

time_sec = 0
time_usec = 8551
time = 8

3 tracker = 8
time_sec_start = 1685973701
time_sec_end = 1685973701
time_usec_start = 944559
time_usec_end = 953888

time_sec = 0
time_usec = 9329
time = 9

1 tracker = 9
time_sec_start = 1685973701
time_sec_end = 1685973701
time_usec_start = 944562
time_usec_end = 954754

time_sec = 0
time_usec = 10192
time = 10

3 tracker = 10
time_sec_start = 1685973701
time_sec_end = 1685973701
time_usec_start = 944559
time_usec_end = 955621

time_sec = 0
time_usec = 11062
time = 11

1 tracker = 11
time_sec_start = 1685973701
time_sec_end = 1685973701
time_usec_start = 944562
time_usec_end = 956532

time_sec = 0
time_usec = 11970
time = 11

3 tracker = 11
time_sec_start = 1685973701
time_sec_end = 1685973701
time_usec_start = 944559
time_usec_end = 957394

time_sec = 0
time_usec = 12835
time = 12

1 tracker = 12
time_sec_start = 1685973701
time_sec_end = 1685973701
time_usec_start = 944562
time_usec_end = 958166

time_sec = 0
time_usec = 13604
time = 13

3 tracker = 13
time_sec_start = 1685973701
time_sec_end = 1685973701
time_usec_start = 944559
time_usec_end = 958966

time_sec = 0
time_usec = 14407
time = 14

1 tracker = 14
time_sec_start = 1685973701
time_sec_end = 1685973701
time_usec_start = 944562
time_usec_end = 959742

time_sec = 0
time_usec = 15180
time = 15

3 tracker = 15
time_sec_start = 1685973701
time_sec_end = 1685973701
time_usec_start = 944559
time_usec_end = 960610

time_sec = 0
time_usec = 16051
time = 16

1 tracker = 16
time_sec_start = 1685973701
time_sec_end = 1685973701
time_usec_start = 944562
time_usec_end = 961470

time_sec = 0
time_usec = 16908
time = 16

3 tracker = 16
time_sec_start = 1685973701
time_sec_end = 1685973701
time_usec_start = 944559
time_usec_end = 962385

time_sec = 0
time_usec = 17826
time = 17

1 tracker = 17
time_sec_start = 1685973701
time_sec_end = 1685973701
time_usec_start = 944562
time_usec_end = 963096

time_sec = 0
time_usec = 18534
time = 18

3 tracker = 18
time_sec_start = 1685973701
time_sec_end = 1685973701
time_usec_start = 944559
time_usec_end = 963706

time_sec = 0
time_usec = 19147
time = 19

1 tracker = 19
time_sec_start = 1685973701
time_sec_end = 1685973701
time_usec_start = 944562
time_usec_end = 964345

time_sec = 0
time_usec = 19783
time = 19

3 tracker = 19
time_sec_start = 1685973701
time_sec_end = 1685973701
time_usec_start = 944559
time_usec_end = 965062

time_sec = 0
time_usec = 20503
time = 20

1 tracker = 20
time_sec_start = 1685973701
time_sec_end = 1685973701
time_usec_start = 944562
time_usec_end = 965728

time_sec = 0
time_usec = 21166
time = 21

3 tracker = 21
time_sec_start = 1685973701
time_sec_end = 1685973701
time_usec_start = 944559
time_usec_end = 966393

time_sec = 0
time_usec = 21834
time = 21

1 tracker = 21
time_sec_start = 1685973701
time_sec_end = 1685973701
time_usec_start = 944562
time_usec_end = 967191

time_sec = 0
time_usec = 22629
time = 22

3 tracker = 22
time_sec_start = 1685973701
time_sec_end = 1685973701
time_usec_start = 944559
time_usec_end = 968064

time_sec = 0
time_usec = 23505
time = 23

1 tracker = 23
time_sec_start = 1685973701
time_sec_end = 1685973701
time_usec_start = 944562
time_usec_end = 968937

time_sec = 0
time_usec = 24375
time = 24

3 tracker = 24
time_sec_start = 1685973701
time_sec_end = 1685973701
time_usec_start = 944559
time_usec_end = 969828

time_sec = 0
time_usec = 25269
time = 25

1 tracker = 25
time_sec_start = 1685973701
time_sec_end = 1685973701
time_usec_start = 944562
time_usec_end = 970683

time_sec = 0
time_usec = 26121
time = 26

3 tracker = 26
time_sec_start = 1685973701
time_sec_end = 1685973701
time_usec_start = 944559
time_usec_end = 971541

time_sec = 0
time_usec = 26982
time = 26

1 tracker = 26
time_sec_start = 1685973701
time_sec_end = 1685973701
time_usec_start = 944562
time_usec_end = 972397

time_sec = 0
time_usec = 27835
time = 27

3 tracker = 27
time_sec_start = 1685973701
time_sec_end = 1685973701
time_usec_start = 944559
time_usec_end = 973137

time_sec = 0
time_usec = 28578
time = 28

1 tracker = 28
time_sec_start = 1685973701
time_sec_end = 1685973701
time_usec_start = 944562
time_usec_end = 973974

time_sec = 0
time_usec = 29412
time = 29

3 tracker = 29
time_sec_start = 1685973701
time_sec_end = 1685973701
time_usec_start = 944559
time_usec_end = 974742

time_sec = 0
time_usec = 30183
time = 30

1 tracker = 30
[36m30 ms[0m	|3|	is sleeping
[36m30 ms[0m	|1|	is sleeping
[36m30 ms[0m	|4|	has taken a fork
[36m30 ms[0m	|4|	is eating
[36m30 ms[0m	|2|	has taken a fork
[36m30 ms[0m	|2|	is eating
time_sec_start = 1685973701
time_sec_end = 1685973701
time_usec_start = 974787
time_usec_end = 975080

time_sec = 0
time_usec = 293
time = 0

2 tracker = 0
time_sec_start = 1685973701
time_sec_end = 1685973701
time_usec_start = 944562
time_usec_end = 975508

time_sec = 0
time_usec = 30946
time = 30

3 tracker = 30
time_sec_start = 1685973701
time_sec_end = 1685973701
time_usec_start = 974777
time_usec_end = 975936

time_sec = 0
time_usec = 1159
time = 1

4 tracker = 1
time_sec_start = 1685973701
time_sec_end = 1685973701
time_usec_start = 944559
time_usec_end = 976364

time_sec = 0
time_usec = 31805
time = 31

1 tracker = 31
time_sec_start = 1685973701
time_sec_end = 1685973701
time_usec_start = 974787
time_usec_end = 976792

time_sec = 0
time_usec = 2005
time = 2

2 tracker = 2
time_sec_start = 1685973701
time_sec_end = 1685973701
time_usec_start = 944562
time_usec_end = 977221

time_sec = 0
time_usec = 32659
time = 32

3 tracker = 32
time_sec_start = 1685973701
time_sec_end = 1685973701
time_usec_start = 974777
time_usec_end = 977525

time_sec = 0
time_usec = 2748
time = 2

4 tracker = 2
time_sec_start = 1685973701
time_sec_end = 1685973701
time_usec_start = 944559
time_usec_end = 977947

time_sec = 0
time_usec = 33388
time = 33

1 tracker = 33
time_sec_start = 1685973701
time_sec_end = 1685973701
time_usec_start = 974787
time_usec_end = 978374

time_sec = 0
time_usec = 3587
time = 3

2 tracker = 3
time_sec_start = 1685973701
time_sec_end = 1685973701
time_usec_start = 944562
time_usec_end = 978710

time_sec = 0
time_usec = 34148
time = 34

3 tracker = 34
time_sec_start = 1685973701
time_sec_end = 1685973701
time_usec_start = 974777
time_usec_end = 979016

time_sec = 0
time_usec = 4239
time = 4

4 tracker = 4
time_sec_start = 1685973701
time_sec_end = 1685973701
time_usec_start = 944559
time_usec_end = 979620

time_sec = 0
time_usec = 35061
time = 35

1 tracker = 35
time_sec_start = 1685973701
time_sec_end = 1685973701
time_usec_start = 974787
time_usec_end = 979951

time_sec = 0
time_usec = 5164
time = 5

2 tracker = 5
time_sec_start = 1685973701
time_sec_end = 1685973701
time_usec_start = 944562
time_usec_end = 980352

time_sec = 0
time_usec = 35790
time = 35

3 tracker = 35
time_sec_start = 1685973701
time_sec_end = 1685973701
time_usec_start = 974777
time_usec_end = 980781

time_sec = 0
time_usec = 6004
time = 6

4 tracker = 6
time_sec_start = 1685973701
time_sec_end = 1685973701
time_usec_start = 944559
time_usec_end = 981087

time_sec = 0
time_usec = 36528
time = 36

1 tracker = 36
time_sec_start = 1685973701
time_sec_end = 1685973701
time_usec_start = 974787
time_usec_end = 981381

time_sec = 0
time_usec = 6594
time = 6

2 tracker = 6
time_sec_start = 1685973701
time_sec_end = 1685973701
time_usec_start = 944562
time_usec_end = 981684

time_sec = 0
time_usec = 37122
time = 37

3 tracker = 37
time_sec_start = 1685973701
time_sec_end = 1685973701
time_usec_start = 974777
time_usec_end = 981988

time_sec = 0
time_usec = 7211
time = 7

4 tracker = 7
time_sec_start = 1685973701
time_sec_end = 1685973701
time_usec_start = 944559
time_usec_end = 982298

time_sec = 0
time_usec = 37739
time = 37

1 tracker = 37
time_sec_start = 1685973701
time_sec_end = 1685973701
time_usec_start = 974787
time_usec_end = 982694

time_sec = 0
time_usec = 7907
time = 7

2 tracker = 7
time_sec_start = 1685973701
time_sec_end = 1685973701
time_usec_start = 944562
time_usec_end = 983094

time_sec = 0
time_usec = 38532
time = 38

3 tracker = 38
time_sec_start = 1685973701
time_sec_end = 1685973701
time_usec_start = 974777
time_usec_end = 983520

time_sec = 0
time_usec = 8743
time = 8

4 tracker = 8
time_sec_start = 1685973701
time_sec_end = 1685973701
time_usec_start = 944559
time_usec_end = 983960

time_sec = 0
time_usec = 39401
time = 39

1 tracker = 39
time_sec_start = 1685973701
time_sec_end = 1685973701
time_usec_start = 974787
time_usec_end = 984405

time_sec = 0
time_usec = 9618
time = 9

2 tracker = 9
time_sec_start = 1685973701
time_sec_end = 1685973701
time_usec_start = 944562
time_usec_end = 984750

time_sec = 0
time_usec = 40188
time = 40

3 tracker = 40
time_sec_start = 1685973701
time_sec_end = 1685973701
time_usec_start = 974777
time_usec_end = 985172

time_sec = 0
time_usec = 10395
time = 10

4 tracker = 10
time_sec_start = 1685973701
time_sec_end = 1685973701
time_usec_start = 944559
time_usec_end = 985499

time_sec = 0
time_usec = 40940
time = 40

1 tracker = 40
time_sec_start = 1685973701
time_sec_end = 1685973701
time_usec_start = 974787
time_usec_end = 985866

time_sec = 0
time_usec = 11079
time = 11

2 tracker = 11
time_sec_start = 1685973701
time_sec_end = 1685973701
time_usec_start = 944562
time_usec_end = 986236

time_sec = 0
time_usec = 41674
time = 41

3 tracker = 41
time_sec_start = 1685973701
time_sec_end = 1685973701
time_usec_start = 974777
time_usec_end = 986607

time_sec = 0
time_usec = 11830
time = 11

4 tracker = 11
time_sec_start = 1685973701
time_sec_end = 1685973701
time_usec_start = 944559
time_usec_end = 986976

time_sec = 0
time_usec = 42417
time = 42

1 tracker = 42
time_sec_start = 1685973701
time_sec_end = 1685973701
time_usec_start = 974787
time_usec_end = 987347

time_sec = 0
time_usec = 12560
time = 12

2 tracker = 12
time_sec_start = 1685973701
time_sec_end = 1685973701
time_usec_start = 944562
time_usec_end = 987717

time_sec = 0
time_usec = 43155
time = 43

3 tracker = 43
time_sec_start = 1685973701
time_sec_end = 1685973701
time_usec_start = 974777
time_usec_end = 988088

time_sec = 0
time_usec = 13311
time = 13

4 tracker = 13
time_sec_start = 1685973701
time_sec_end = 1685973701
time_usec_start = 944559
time_usec_end = 988465

time_sec = 0
time_usec = 43906
time = 43

1 tracker = 43
time_sec_start = 1685973701
time_sec_end = 1685973701
time_usec_start = 974787
time_usec_end = 988835

time_sec = 0
time_usec = 14048
time = 14

2 tracker = 14
time_sec_start = 1685973701
time_sec_end = 1685973701
time_usec_start = 944562
time_usec_end = 989227

time_sec = 0
time_usec = 44665
time = 44

3 tracker = 44
time_sec_start = 1685973701
time_sec_end = 1685973701
time_usec_start = 974777
time_usec_end = 989555

time_sec = 0
time_usec = 14778
time = 14

4 tracker = 14
time_sec_start = 1685973701
time_sec_end = 1685973701
time_usec_start = 944559
time_usec_end = 989887

time_sec = 0
time_usec = 45328
time = 45

1 tracker = 45
time_sec_start = 1685973701
time_sec_end = 1685973701
time_usec_start = 974787
time_usec_end = 990242

time_sec = 0
time_usec = 15455
time = 15

2 tracker = 15
time_sec_start = 1685973701
time_sec_end = 1685973701
time_usec_start = 944562
time_usec_end = 990584

time_sec = 0
time_usec = 46022
time = 46

3 tracker = 46
time_sec_start = 1685973701
time_sec_end = 1685973701
time_usec_start = 974777
time_usec_end = 990968

time_sec = 0
time_usec = 16191
time = 16

4 tracker = 16
time_sec_start = 1685973701
time_sec_end = 1685973701
time_usec_start = 944559
time_usec_end = 991344

time_sec = 0
time_usec = 46785
time = 46

1 tracker = 46
time_sec_start = 1685973701
time_sec_end = 1685973701
time_usec_start = 974787
time_usec_end = 991724

time_sec = 0
time_usec = 16937
time = 16

2 tracker = 16
time_sec_start = 1685973701
time_sec_end = 1685973701
time_usec_start = 944562
time_usec_end = 992092

time_sec = 0
time_usec = 47530
time = 47

3 tracker = 47
time_sec_start = 1685973701
time_sec_end = 1685973701
time_usec_start = 974777
time_usec_end = 992461

time_sec = 0
time_usec = 17684
time = 17

4 tracker = 17
time_sec_start = 1685973701
time_sec_end = 1685973701
time_usec_start = 944559
time_usec_end = 992832

time_sec = 0
time_usec = 48273
time = 48

1 tracker = 48
time_sec_start = 1685973701
time_sec_end = 1685973701
time_usec_start = 974787
time_usec_end = 993201

time_sec = 0
time_usec = 18414
time = 18

2 tracker = 18
time_sec_start = 1685973701
time_sec_end = 1685973701
time_usec_start = 944562
time_usec_end = 993525

time_sec = 0
time_usec = 48963
time = 48

3 tracker = 48
time_sec_start = 1685973701
time_sec_end = 1685973701
time_usec_start = 974777
time_usec_end = 993865

time_sec = 0
time_usec = 19088
time = 19

4 tracker = 19
time_sec_start = 1685973701
time_sec_end = 1685973701
time_usec_start = 944559
time_usec_end = 994208

time_sec = 0
time_usec = 49649
time = 49

1 tracker = 49
time_sec_start = 1685973701
time_sec_end = 1685973701
time_usec_start = 974787
time_usec_end = 994551

time_sec = 0
time_usec = 19764
time = 19

2 tracker = 19
time_sec_start = 1685973701
time_sec_end = 1685973701
time_usec_start = 944562
time_usec_end = 994895

time_sec = 0
time_usec = 50333
time = 50

3 tracker = 50
time_sec_start = 1685973701
time_sec_end = 1685973701
time_usec_start = 974777
time_usec_end = 995227

time_sec = 0
time_usec = 20450
time = 20

4 tracker = 20
time_sec_start = 1685973701
time_sec_end = 1685973701
time_usec_start = 944559
time_usec_end = 995568

time_sec = 0
time_usec = 51009
time = 51

1 tracker = 51
time_sec_start = 1685973701
time_sec_end = 1685973701
time_usec_start = 974787
time_usec_end = 995903

time_sec = 0
time_usec = 21116
time = 21

2 tracker = 21
time_sec_start = 1685973701
time_sec_end = 1685973701
time_usec_start = 944562
time_usec_end = 996238

time_sec = 0
time_usec = 51676
time = 51

3 tracker = 51
time_sec_start = 1685973701
time_sec_end = 1685973701
time_usec_start = 974777
time_usec_end = 996573

time_sec = 0
time_usec = 21796
time = 21

4 tracker = 21
time_sec_start = 1685973701
time_sec_end = 1685973701
time_usec_start = 944559
time_usec_end = 996908

time_sec = 0
time_usec = 52349
time = 52

1 tracker = 52
time_sec_start = 1685973701
time_sec_end = 1685973701
time_usec_start = 974787
time_usec_end = 997244

time_sec = 0
time_usec = 22457
time = 22

2 tracker = 22
time_sec_start = 1685973701
time_sec_end = 1685973701
time_usec_start = 944562
time_usec_end = 997548

time_sec = 0
time_usec = 52986
time = 52

3 tracker = 52
time_sec_start = 1685973701
time_sec_end = 1685973701
time_usec_start = 974777
time_usec_end = 997891

time_sec = 0
time_usec = 23114
time = 23

4 tracker = 23
time_sec_start = 1685973701
time_sec_end = 1685973701
time_usec_start = 944559
time_usec_end = 998220

time_sec = 0
time_usec = 53661
time = 53

1 tracker = 53
time_sec_start = 1685973701
time_sec_end = 1685973701
time_usec_start = 974787
time_usec_end = 998550

time_sec = 0
time_usec = 23763
time = 23

2 tracker = 23
time_sec_start = 1685973701
time_sec_end = 1685973701
time_usec_start = 944562
time_usec_end = 998877

time_sec = 0
time_usec = 54315
time = 54

3 tracker = 54
time_sec_start = 1685973701
time_sec_end = 1685973701
time_usec_start = 974777
time_usec_end = 999219

time_sec = 0
time_usec = 24442
time = 24

4 tracker = 24
time_sec_start = 1685973701
time_sec_end = 1685973701
time_usec_start = 944559
time_usec_end = 999560

time_sec = 0
time_usec = 55001
time = 55

1 tracker = 55
time_sec_start = 1685973701
time_sec_end = 1685973701
time_usec_start = 974787
time_usec_end = 999903

time_sec = 0
time_usec = 25116
time = 25

2 tracker = 25
time_sec_start = 1685973701
time_sec_end = 1685973702
time_usec_start = 944562
time_usec_end = 243

time_sec = 1
time_usec = -944319
time = 56

3 tracker = 56
time_sec_start = 1685973701
time_sec_end = 1685973702
time_usec_start = 974777
time_usec_end = 585

time_sec = 1
time_usec = -974192
time = 26

4 tracker = 26
time_sec_start = 1685973701
time_sec_end = 1685973702
time_usec_start = 944559
time_usec_end = 925

time_sec = 1
time_usec = -943634
time = 57

1 tracker = 57
time_sec_start = 1685973701
time_sec_end = 1685973702
time_usec_start = 974787
time_usec_end = 1267

time_sec = 1
time_usec = -973520
time = 27

2 tracker = 27
time_sec_start = 1685973701
time_sec_end = 1685973702
time_usec_start = 944562
time_usec_end = 1603

time_sec = 1
time_usec = -942959
time = 58

3 tracker = 58
time_sec_start = 1685973701
time_sec_end = 1685973702
time_usec_start = 974777
time_usec_end = 1936

time_sec = 1
time_usec = -972841
time = 28

4 tracker = 28
time_sec_start = 1685973701
time_sec_end = 1685973702
time_usec_start = 944559
time_usec_end = 2269

time_sec = 1
time_usec = -942290
time = 58

1 tracker = 58
time_sec_start = 1685973701
time_sec_end = 1685973702
time_usec_start = 974787
time_usec_end = 2601

time_sec = 1
time_usec = -972186
time = 28

2 tracker = 28
time_sec_start = 1685973701
time_sec_end = 1685973702
time_usec_start = 944562
time_usec_end = 2933

time_sec = 1
time_usec = -941629
time = 59

3 tracker = 59
time_sec_start = 1685973701
time_sec_end = 1685973702
time_usec_start = 974777
time_usec_end = 3271

time_sec = 1
time_usec = -971506
time = 29

4 tracker = 29
time_sec_start = 1685973701
time_sec_end = 1685973702
time_usec_start = 944559
time_usec_end = 3610

time_sec = 1
time_usec = -940949
time = 60

1 tracker = 60
time_sec_start = 1685973701
time_sec_end = 1685973702
time_usec_start = 974787
time_usec_end = 3949

time_sec = 1
time_usec = -970838
time = 30

2 tracker = 30
time_sec_start = 1685973701
time_sec_end = 1685973702
time_usec_start = 944562
time_usec_end = 4288

time_sec = 1
time_usec = -940274
time = 60

3 tracker = 60
time_sec_start = 1685973701
time_sec_end = 1685973702
time_usec_start = 974777
time_usec_end = 4627

time_sec = 1
time_usec = -970150
time = 30

4 tracker = 30
[36m61 ms[0m	|3|	is thinking
[36m61 ms[0m	|2|	is sleeping
[36m61 ms[0m	|1|	is thinking
[36m61 ms[0m	|4|	is sleeping
[36m61 ms[0m	|3|	has taken a fork
[36m61 ms[0m	|3|	is eating
[36m61 ms[0m	|1|	has taken a fork
[36m61 ms[0m	|1|	is eating
time_sec_start = 1685973702
time_sec_end = 1685973702
time_usec_start = 4911
time_usec_end = 4964

time_sec = 0
time_usec = 53
time = 0

1 tracker = 0
time_sec_start = 1685973701
time_sec_end = 1685973702
time_usec_start = 974787
time_usec_end = 5299

time_sec = 1
time_usec = -969488
time = 31

2 tracker = 31
time_sec_start = 1685973702
time_sec_end = 1685973702
time_usec_start = 4900
time_usec_end = 5632

time_sec = 0
time_usec = 732
time = 0

3 tracker = 0
time_sec_start = 1685973701
time_sec_end = 1685973702
time_usec_start = 974777
time_usec_end = 5967

time_sec = 1
time_usec = -968810
time = 32

4 tracker = 32
time_sec_start = 1685973702
time_sec_end = 1685973702
time_usec_start = 4911
time_usec_end = 6317

time_sec = 0
time_usec = 1406
time = 1

1 tracker = 1
time_sec_start = 1685973701
time_sec_end = 1685973702
time_usec_start = 974787
time_usec_end = 6655

time_sec = 1
time_usec = -968132
time = 32

2 tracker = 32
time_sec_start = 1685973702
time_sec_end = 1685973702
time_usec_start = 4900
time_usec_end = 6994

time_sec = 0
time_usec = 2094
time = 2

3 tracker = 2
time_sec_start = 1685973701
time_sec_end = 1685973702
time_usec_start = 974777
time_usec_end = 7333

time_sec = 1
time_usec = -967444
time = 33

4 tracker = 33
time_sec_start = 1685973702
time_sec_end = 1685973702
time_usec_start = 4911
time_usec_end = 7671

time_sec = 0
time_usec = 2760
time = 2

1 tracker = 2
time_sec_start = 1685973701
time_sec_end = 1685973702
time_usec_start = 974787
time_usec_end = 8001

time_sec = 1
time_usec = -966786
time = 34

2 tracker = 34
time_sec_start = 1685973702
time_sec_end = 1685973702
time_usec_start = 4900
time_usec_end = 8334

time_sec = 0
time_usec = 3434
time = 3

3 tracker = 3
time_sec_start = 1685973701
time_sec_end = 1685973702
time_usec_start = 974777
time_usec_end = 8741

time_sec = 1
time_usec = -966036
time = 34

4 tracker = 34
time_sec_start = 1685973702
time_sec_end = 1685973702
time_usec_start = 4911
time_usec_end = 9149

time_sec = 0
time_usec = 4238
time = 4

1 tracker = 4
time_sec_start = 1685973701
time_sec_end = 1685973702
time_usec_start = 974787
time_usec_end = 9529

time_sec = 1
time_usec = -965258
time = 35

2 tracker = 35
time_sec_start = 1685973702
time_sec_end = 1685973702
time_usec_start = 4900
time_usec_end = 9936

time_sec = 0
time_usec = 5036
time = 5

3 tracker = 5
time_sec_start = 1685973701
time_sec_end = 1685973702
time_usec_start = 974777
time_usec_end = 10343

time_sec = 1
time_usec = -964434
time = 36

4 tracker = 36
time_sec_start = 1685973702
time_sec_end = 1685973702
time_usec_start = 4911
time_usec_end = 10747

time_sec = 0
time_usec = 5836
time = 5

1 tracker = 5
time_sec_start = 1685973701
time_sec_end = 1685973702
time_usec_start = 974787
time_usec_end = 11153

time_sec = 1
time_usec = -963634
time = 37

2 tracker = 37
time_sec_start = 1685973702
time_sec_end = 1685973702
time_usec_start = 4900
time_usec_end = 11557

time_sec = 0
time_usec = 6657
time = 6

3 tracker = 6
time_sec_start = 1685973701
time_sec_end = 1685973702
time_usec_start = 974777
time_usec_end = 11966

time_sec = 1
time_usec = -962811
time = 38

4 tracker = 38
time_sec_start = 1685973702
time_sec_end = 1685973702
time_usec_start = 4911
time_usec_end = 12295

time_sec = 0
time_usec = 7384
time = 7

1 tracker = 7
time_sec_start = 1685973701
time_sec_end = 1685973702
time_usec_start = 974787
time_usec_end = 12700

time_sec = 1
time_usec = -962087
time = 38

2 tracker = 38
time_sec_start = 1685973702
time_sec_end = 1685973702
time_usec_start = 4900
time_usec_end = 13048

time_sec = 0
time_usec = 8148
time = 8

3 tracker = 8
time_sec_start = 1685973701
time_sec_end = 1685973702
time_usec_start = 974777
time_usec_end = 13382

time_sec = 1
time_usec = -961395
time = 39

4 tracker = 39
time_sec_start = 1685973702
time_sec_end = 1685973702
time_usec_start = 4911
time_usec_end = 13719

time_sec = 0
time_usec = 8808
time = 8

1 tracker = 8
time_sec_start = 1685973701
time_sec_end = 1685973702
time_usec_start = 974787
time_usec_end = 14055

time_sec = 1
time_usec = -960732
time = 40

2 tracker = 40
time_sec_start = 1685973702
time_sec_end = 1685973702
time_usec_start = 4900
time_usec_end = 14391

time_sec = 0
time_usec = 9491
time = 9

3 tracker = 9
time_sec_start = 1685973701
time_sec_end = 1685973702
time_usec_start = 974777
time_usec_end = 14698

time_sec = 1
time_usec = -960079
time = 40

4 tracker = 40
time_sec_start = 1685973702
time_sec_end = 1685973702
time_usec_start = 4911
time_usec_end = 15003

time_sec = 0
time_usec = 10092
time = 10

1 tracker = 10
time_sec_start = 1685973701
time_sec_end = 1685973702
time_usec_start = 974787
time_usec_end = 15358

time_sec = 1
time_usec = -959429
time = 41

2 tracker = 41
time_sec_start = 1685973702
time_sec_end = 1685973702
time_usec_start = 4900
time_usec_end = 15679

time_sec = 0
time_usec = 10779
time = 10

3 tracker = 10
time_sec_start = 1685973701
time_sec_end = 1685973702
time_usec_start = 974777
time_usec_end = 16074

time_sec = 1
time_usec = -958703
time = 42

4 tracker = 42
time_sec_start = 1685973702
time_sec_end = 1685973702
time_usec_start = 4911
time_usec_end = 16449

time_sec = 0
time_usec = 11538
time = 11

1 tracker = 11
time_sec_start = 1685973701
time_sec_end = 1685973702
time_usec_start = 974787
time_usec_end = 16853

time_sec = 1
time_usec = -957934
time = 43

2 tracker = 43
time_sec_start = 1685973702
time_sec_end = 1685973702
time_usec_start = 4900
time_usec_end = 17256

time_sec = 0
time_usec = 12356
time = 12

3 tracker = 12
time_sec_start = 1685973701
time_sec_end = 1685973702
time_usec_start = 974777
time_usec_end = 17562

time_sec = 1
time_usec = -957215
time = 43

4 tracker = 43
time_sec_start = 1685973702
time_sec_end = 1685973702
time_usec_start = 4911
time_usec_end = 17958

time_sec = 0
time_usec = 13047
time = 13

1 tracker = 13
time_sec_start = 1685973701
time_sec_end = 1685973702
time_usec_start = 974787
time_usec_end = 18353

time_sec = 1
time_usec = -956434
time = 44

2 tracker = 44
time_sec_start = 1685973702
time_sec_end = 1685973702
time_usec_start = 4900
time_usec_end = 18695

time_sec = 0
time_usec = 13795
time = 13

3 tracker = 13
time_sec_start = 1685973701
time_sec_end = 1685973702
time_usec_start = 974777
time_usec_end = 19037

time_sec = 1
time_usec = -955740
time = 45

4 tracker = 45
time_sec_start = 1685973702
time_sec_end = 1685973702
time_usec_start = 4911
time_usec_end = 19367

time_sec = 0
time_usec = 14456
time = 14

1 tracker = 14
time_sec_start = 1685973701
time_sec_end = 1685973702
time_usec_start = 974787
time_usec_end = 19739

time_sec = 1
time_usec = -955048
time = 45

2 tracker = 45
time_sec_start = 1685973702
time_sec_end = 1685973702
time_usec_start = 4900
time_usec_end = 20130

time_sec = 0
time_usec = 15230
time = 15

3 tracker = 15
time_sec_start = 1685973701
time_sec_end = 1685973702
time_usec_start = 974777
time_usec_end = 20468

time_sec = 1
time_usec = -954309
time = 46

4 tracker = 46
time_sec_start = 1685973702
time_sec_end = 1685973702
time_usec_start = 4911
time_usec_end = 20806

time_sec = 0
time_usec = 15895
time = 15

1 tracker = 15
time_sec_start = 1685973701
time_sec_end = 1685973702
time_usec_start = 974787
time_usec_end = 21114

time_sec = 1
time_usec = -953673
time = 47

2 tracker = 47
time_sec_start = 1685973702
time_sec_end = 1685973702
time_usec_start = 4900
time_usec_end = 21385

time_sec = 0
time_usec = 16485
time = 16

3 tracker = 16
time_sec_start = 1685973701
time_sec_end = 1685973702
time_usec_start = 974777
time_usec_end = 21692

time_sec = 1
time_usec = -953085
time = 47

4 tracker = 47
time_sec_start = 1685973702
time_sec_end = 1685973702
time_usec_start = 4911
time_usec_end = 21996

time_sec = 0
time_usec = 17085
time = 17

1 tracker = 17
time_sec_start = 1685973701
time_sec_end = 1685973702
time_usec_start = 974787
time_usec_end = 22300

time_sec = 1
time_usec = -952487
time = 48

2 tracker = 48
time_sec_start = 1685973702
time_sec_end = 1685973702
time_usec_start = 4900
time_usec_end = 22637

time_sec = 0
time_usec = 17737
time = 17

3 tracker = 17
time_sec_start = 1685973701
time_sec_end = 1685973702
time_usec_start = 974777
time_usec_end = 22966

time_sec = 1
time_usec = -951811
time = 49

4 tracker = 49
time_sec_start = 1685973702
time_sec_end = 1685973702
time_usec_start = 4911
time_usec_end = 23297

time_sec = 0
time_usec = 18386
time = 18

1 tracker = 18
time_sec_start = 1685973701
time_sec_end = 1685973702
time_usec_start = 974787
time_usec_end = 23633

time_sec = 1
time_usec = -951154
time = 49

2 tracker = 49
time_sec_start = 1685973702
time_sec_end = 1685973702
time_usec_start = 4900
time_usec_end = 23972

time_sec = 0
time_usec = 19072
time = 19

3 tracker = 19
time_sec_start = 1685973701
time_sec_end = 1685973702
time_usec_start = 974777
time_usec_end = 24329

time_sec = 1
time_usec = -950448
time = 50

4 tracker = 50
time_sec_start = 1685973702
time_sec_end = 1685973702
time_usec_start = 4911
time_usec_end = 24667

time_sec = 0
time_usec = 19756
time = 19

1 tracker = 19
time_sec_start = 1685973701
time_sec_end = 1685973702
time_usec_start = 974787
time_usec_end = 25009

time_sec = 1
time_usec = -949778
time = 51

2 tracker = 51
time_sec_start = 1685973702
time_sec_end = 1685973702
time_usec_start = 4900
time_usec_end = 25349

time_sec = 0
time_usec = 20449
time = 20

3 tracker = 20
time_sec_start = 1685973701
time_sec_end = 1685973702
time_usec_start = 974777
time_usec_end = 25682

time_sec = 1
time_usec = -949095
time = 51

4 tracker = 51
time_sec_start = 1685973702
time_sec_end = 1685973702
time_usec_start = 4911
time_usec_end = 26021

time_sec = 0
time_usec = 21110
time = 21

1 tracker = 21
time_sec_start = 1685973701
time_sec_end = 1685973702
time_usec_start = 974787
time_usec_end = 26363

time_sec = 1
time_usec = -948424
time = 52

2 tracker = 52
time_sec_start = 1685973702
time_sec_end = 1685973702
time_usec_start = 4900
time_usec_end = 26704

time_sec = 0
time_usec = 21804
time = 21

3 tracker = 21
time_sec_start = 1685973701
time_sec_end = 1685973702
time_usec_start = 974777
time_usec_end = 27046

time_sec = 1
time_usec = -947731
time = 53

4 tracker = 53
time_sec_start = 1685973702
time_sec_end = 1685973702
time_usec_start = 4911
time_usec_end = 27387

time_sec = 0
time_usec = 22476
time = 22

1 tracker = 22
time_sec_start = 1685973701
time_sec_end = 1685973702
time_usec_start = 974787
time_usec_end = 27728

time_sec = 1
time_usec = -947059
time = 53

2 tracker = 53
time_sec_start = 1685973702
time_sec_end = 1685973702
time_usec_start = 4900
time_usec_end = 28070

time_sec = 0
time_usec = 23170
time = 23

3 tracker = 23
[36m91 ms[0m	|2|	is thinking
[36m91 ms[0m	|4|	is thinking
[36m91 ms[0m	|3|	is sleeping
[36m91 ms[0m	|4|	has taken a fork
[36m91 ms[0m	|1|	is sleeping
[36m91 ms[0m	|2|	has taken a fork
[36m91 ms[0m	|2|	is eating
[36m91 ms[0m	|4|	is eating
time_sec_start = 1685973702
time_sec_end = 1685973702
time_usec_start = 34974
time_usec_end = 36299

time_sec = 0
time_usec = 1325
time = 1

4 tracker = 1
time_sec_start = 1685973702
time_sec_end = 1685973702
time_usec_start = 4911
time_usec_end = 36609

time_sec = 0
time_usec = 31698
time = 31

1 tracker = 31
time_sec_start = 1685973702
time_sec_end = 1685973702
time_usec_start = 34977
time_usec_end = 36915

time_sec = 0
time_usec = 1938
time = 1

2 tracker = 1
time_sec_start = 1685973702
time_sec_end = 1685973702
time_usec_start = 4900
time_usec_end = 37223

time_sec = 0
time_usec = 32323
time = 32

3 tracker = 32
time_sec_start = 1685973702
time_sec_end = 1685973702
time_usec_start = 34974
time_usec_end = 37529

time_sec = 0
time_usec = 2555
time = 2

4 tracker = 2
time_sec_start = 1685973702
time_sec_end = 1685973702
time_usec_start = 4911
time_usec_end = 37865

time_sec = 0
time_usec = 32954
time = 32

1 tracker = 32
time_sec_start = 1685973702
time_sec_end = 1685973702
time_usec_start = 34977
time_usec_end = 38196

time_sec = 0
time_usec = 3219
time = 3

2 tracker = 3
time_sec_start = 1685973702
time_sec_end = 1685973702
time_usec_start = 4900
time_usec_end = 38503

time_sec = 0
time_usec = 33603
time = 33

3 tracker = 33
time_sec_start = 1685973702
time_sec_end = 1685973702
time_usec_start = 34974
time_usec_end = 38809

time_sec = 0
time_usec = 3835
time = 3

4 tracker = 3
time_sec_start = 1685973702
time_sec_end = 1685973702
time_usec_start = 4911
time_usec_end = 39114

time_sec = 0
time_usec = 34203
time = 34

1 tracker = 34
time_sec_start = 1685973702
time_sec_end = 1685973702
time_usec_start = 34977
time_usec_end = 39419

time_sec = 0
time_usec = 4442
time = 4

2 tracker = 4
time_sec_start = 1685973702
time_sec_end = 1685973702
time_usec_start = 4900
time_usec_end = 39725

time_sec = 0
time_usec = 34825
time = 34

3 tracker = 34
time_sec_start = 1685973702
time_sec_end = 1685973702
time_usec_start = 34974
time_usec_end = 40029

time_sec = 0
time_usec = 5055
time = 5

4 tracker = 5
time_sec_start = 1685973702
time_sec_end = 1685973702
time_usec_start = 4911
time_usec_end = 40366

time_sec = 0
time_usec = 35455
time = 35

1 tracker = 35
time_sec_start = 1685973702
time_sec_end = 1685973702
time_usec_start = 34977
time_usec_end = 40671

time_sec = 0
time_usec = 5694
time = 5

2 tracker = 5
time_sec_start = 1685973702
time_sec_end = 1685973702
time_usec_start = 4900
time_usec_end = 40977

time_sec = 0
time_usec = 36077
time = 36

3 tracker = 36
time_sec_start = 1685973702
time_sec_end = 1685973702
time_usec_start = 34974
time_usec_end = 41281

time_sec = 0
time_usec = 6307
time = 6

4 tracker = 6
time_sec_start = 1685973702
time_sec_end = 1685973702
time_usec_start = 4911
time_usec_end = 41587

time_sec = 0
time_usec = 36676
time = 36

1 tracker = 36
time_sec_start = 1685973702
time_sec_end = 1685973702
time_usec_start = 34977
time_usec_end = 41893

time_sec = 0
time_usec = 6916
time = 6

2 tracker = 6
time_sec_start = 1685973702
time_sec_end = 1685973702
time_usec_start = 4900
time_usec_end = 42198

time_sec = 0
time_usec = 37298
time = 37

3 tracker = 37
time_sec_start = 1685973702
time_sec_end = 1685973702
time_usec_start = 34974
time_usec_end = 42502

time_sec = 0
time_usec = 7528
time = 7

4 tracker = 7
time_sec_start = 1685973702
time_sec_end = 1685973702
time_usec_start = 4911
time_usec_end = 42807

time_sec = 0
time_usec = 37896
time = 37

1 tracker = 37
time_sec_start = 1685973702
time_sec_end = 1685973702
time_usec_start = 34977
time_usec_end = 43113

time_sec = 0
time_usec = 8136
time = 8

2 tracker = 8
time_sec_start = 1685973702
time_sec_end = 1685973702
time_usec_start = 4900
time_usec_end = 43418

time_sec = 0
time_usec = 38518
time = 38

3 tracker = 38
time_sec_start = 1685973702
time_sec_end = 1685973702
time_usec_start = 34974
time_usec_end = 43722

time_sec = 0
time_usec = 8748
time = 8

4 tracker = 8
time_sec_start = 1685973702
time_sec_end = 1685973702
time_usec_start = 4911
time_usec_end = 44027

time_sec = 0
time_usec = 39116
time = 39

1 tracker = 39
time_sec_start = 1685973702
time_sec_end = 1685973702
time_usec_start = 34977
time_usec_end = 44332

time_sec = 0
time_usec = 9355
time = 9

2 tracker = 9
time_sec_start = 1685973702
time_sec_end = 1685973702
time_usec_start = 4900
time_usec_end = 44637

time_sec = 0
time_usec = 39737
time = 39

3 tracker = 39
time_sec_start = 1685973702
time_sec_end = 1685973702
time_usec_start = 34974
time_usec_end = 44942

time_sec = 0
time_usec = 9968
time = 9

4 tracker = 9
time_sec_start = 1685973702
time_sec_end = 1685973702
time_usec_start = 4911
time_usec_end = 45248

time_sec = 0
time_usec = 40337
time = 40

1 tracker = 40
time_sec_start = 1685973702
time_sec_end = 1685973702
time_usec_start = 34977
time_usec_end = 45553

time_sec = 0
time_usec = 10576
time = 10

2 tracker = 10
time_sec_start = 1685973702
time_sec_end = 1685973702
time_usec_start = 4900
time_usec_end = 45858

time_sec = 0
time_usec = 40958
time = 40

3 tracker = 40
time_sec_start = 1685973702
time_sec_end = 1685973702
time_usec_start = 34974
time_usec_end = 46163

time_sec = 0
time_usec = 11189
time = 11

4 tracker = 11
time_sec_start = 1685973702
time_sec_end = 1685973702
time_usec_start = 4911
time_usec_end = 46468

time_sec = 0
time_usec = 41557
time = 41

1 tracker = 41
time_sec_start = 1685973702
time_sec_end = 1685973702
time_usec_start = 34977
time_usec_end = 46773

time_sec = 0
time_usec = 11796
time = 11

2 tracker = 11
time_sec_start = 1685973702
time_sec_end = 1685973702
time_usec_start = 4900
time_usec_end = 47077

time_sec = 0
time_usec = 42177
time = 42

3 tracker = 42
time_sec_start = 1685973702
time_sec_end = 1685973702
time_usec_start = 34974
time_usec_end = 47383

time_sec = 0
time_usec = 12409
time = 12

4 tracker = 12
time_sec_start = 1685973702
time_sec_end = 1685973702
time_usec_start = 4911
time_usec_end = 47689

time_sec = 0
time_usec = 42778
time = 42

1 tracker = 42
time_sec_start = 1685973702
time_sec_end = 1685973702
time_usec_start = 34977
time_usec_end = 47996

time_sec = 0
time_usec = 13019
time = 13

2 tracker = 13
time_sec_start = 1685973702
time_sec_end = 1685973702
time_usec_start = 4900
time_usec_end = 48328

time_sec = 0
time_usec = 43428
time = 43

3 tracker = 43
time_sec_start = 1685973702
time_sec_end = 1685973702
time_usec_start = 34974
time_usec_end = 48657

time_sec = 0
time_usec = 13683
time = 13

4 tracker = 13
time_sec_start = 1685973702
time_sec_end = 1685973702
time_usec_start = 4911
time_usec_end = 48986

time_sec = 0
time_usec = 44075
time = 44

1 tracker = 44
time_sec_start = 1685973702
time_sec_end = 1685973702
time_usec_start = 34977
time_usec_end = 49316

time_sec = 0
time_usec = 14339
time = 14

2 tracker = 14
time_sec_start = 1685973702
time_sec_end = 1685973702
time_usec_start = 4900
time_usec_end = 49644

time_sec = 0
time_usec = 44744
time = 44

3 tracker = 44
time_sec_start = 1685973702
time_sec_end = 1685973702
time_usec_start = 34974
time_usec_end = 49972

time_sec = 0
time_usec = 14998
time = 14

4 tracker = 14
time_sec_start = 1685973702
time_sec_end = 1685973702
time_usec_start = 4911
time_usec_end = 50301

time_sec = 0
time_usec = 45390
time = 45

1 tracker = 45
time_sec_start = 1685973702
time_sec_end = 1685973702
time_usec_start = 34977
time_usec_end = 50630

time_sec = 0
time_usec = 15653
time = 15

2 tracker = 15
time_sec_start = 1685973702
time_sec_end = 1685973702
time_usec_start = 4900
time_usec_end = 50966

time_sec = 0
time_usec = 46066
time = 46

3 tracker = 46
time_sec_start = 1685973702
time_sec_end = 1685973702
time_usec_start = 34974
time_usec_end = 51302

time_sec = 0
time_usec = 16328
time = 16

4 tracker = 16
time_sec_start = 1685973702
time_sec_end = 1685973702
time_usec_start = 4911
time_usec_end = 51637

time_sec = 0
time_usec = 46726
time = 46

1 tracker = 46
time_sec_start = 1685973702
time_sec_end = 1685973702
time_usec_start = 34977
time_usec_end = 51972

time_sec = 0
time_usec = 16995
time = 16

2 tracker = 16
time_sec_start = 1685973702
time_sec_end = 1685973702
time_usec_start = 4900
time_usec_end = 52307

time_sec = 0
time_usec = 47407
time = 47

3 tracker = 47
time_sec_start = 1685973702
time_sec_end = 1685973702
time_usec_start = 34974
time_usec_end = 52642

time_sec = 0
time_usec = 17668
time = 17

4 tracker = 17
time_sec_start = 1685973702
time_sec_end = 1685973702
time_usec_start = 4911
time_usec_end = 52978

time_sec = 0
time_usec = 48067
time = 48

1 tracker = 48
time_sec_start = 1685973702
time_sec_end = 1685973702
time_usec_start = 34977
time_usec_end = 53315

time_sec = 0
time_usec = 18338
time = 18

2 tracker = 18
time_sec_start = 1685973702
time_sec_end = 1685973702
time_usec_start = 4900
time_usec_end = 53645

time_sec = 0
time_usec = 48745
time = 48

3 tracker = 48
time_sec_start = 1685973702
time_sec_end = 1685973702
time_usec_start = 34974
time_usec_end = 53979

time_sec = 0
time_usec = 19005
time = 19

4 tracker = 19
time_sec_start = 1685973702
time_sec_end = 1685973702
time_usec_start = 4911
time_usec_end = 54313

time_sec = 0
time_usec = 49402
time = 49

1 tracker = 49
time_sec_start = 1685973702
time_sec_end = 1685973702
time_usec_start = 34977
time_usec_end = 54648

time_sec = 0
time_usec = 19671
time = 19

2 tracker = 19
time_sec_start = 1685973702
time_sec_end = 1685973702
time_usec_start = 4900
time_usec_end = 54983

time_sec = 0
time_usec = 50083
time = 50

3 tracker = 50
time_sec_start = 1685973702
time_sec_end = 1685973702
time_usec_start = 34974
time_usec_end = 55318

time_sec = 0
time_usec = 20344
time = 20

4 tracker = 20
time_sec_start = 1685973702
time_sec_end = 1685973702
time_usec_start = 4911
time_usec_end = 55653

time_sec = 0
time_usec = 50742
time = 50

1 tracker = 50
time_sec_start = 1685973702
time_sec_end = 1685973702
time_usec_start = 34977
time_usec_end = 55987

time_sec = 0
time_usec = 21010
time = 21

2 tracker = 21
time_sec_start = 1685973702
time_sec_end = 1685973702
time_usec_start = 4900
time_usec_end = 56322

time_sec = 0
time_usec = 51422
time = 51

3 tracker = 51
time_sec_start = 1685973702
time_sec_end = 1685973702
time_usec_start = 34974
time_usec_end = 56659

time_sec = 0
time_usec = 21685
time = 21

4 tracker = 21
time_sec_start = 1685973702
time_sec_end = 1685973702
time_usec_start = 4911
time_usec_end = 57021

time_sec = 0
time_usec = 52110
time = 52

1 tracker = 52
time_sec_start = 1685973702
time_sec_end = 1685973702
time_usec_start = 34977
time_usec_end = 57355

time_sec = 0
time_usec = 22378
time = 22

2 tracker = 22
time_sec_start = 1685973702
time_sec_end = 1685973702
time_usec_start = 4900
time_usec_end = 57659

time_sec = 0
time_usec = 52759
time = 52

3 tracker = 52
time_sec_start = 1685973702
time_sec_end = 1685973702
time_usec_start = 34974
time_usec_end = 58030

time_sec = 0
time_usec = 23056
time = 23

4 tracker = 23
time_sec_start = 1685973702
time_sec_end = 1685973702
time_usec_start = 4911
time_usec_end = 58336

time_sec = 0
time_usec = 53425
time = 53

1 tracker = 53
time_sec_start = 1685973702
time_sec_end = 1685973702
time_usec_start = 34977
time_usec_end = 58666

time_sec = 0
time_usec = 23689
time = 23

2 tracker = 23
time_sec_start = 1685973702
time_sec_end = 1685973702
time_usec_start = 4900
time_usec_end = 58970

time_sec = 0
time_usec = 54070
time = 54

3 tracker = 54
time_sec_start = 1685973702
time_sec_end = 1685973702
time_usec_start = 34974
time_usec_end = 59274

time_sec = 0
time_usec = 24300
time = 24

4 tracker = 24
time_sec_start = 1685973702
time_sec_end = 1685973702
time_usec_start = 4911
time_usec_end = 59602

time_sec = 0
time_usec = 54691
time = 54

1 tracker = 54
time_sec_start = 1685973702
time_sec_end = 1685973702
time_usec_start = 34977
time_usec_end = 59906

time_sec = 0
time_usec = 24929
time = 24

2 tracker = 24
time_sec_start = 1685973702
time_sec_end = 1685973702
time_usec_start = 4900
time_usec_end = 60234

time_sec = 0
time_usec = 55334
time = 55

3 tracker = 55
time_sec_start = 1685973702
time_sec_end = 1685973702
time_usec_start = 34974
time_usec_end = 60562

time_sec = 0
time_usec = 25588
time = 25

4 tracker = 25
time_sec_start = 1685973702
time_sec_end = 1685973702
time_usec_start = 4911
time_usec_end = 60890

time_sec = 0
time_usec = 55979
time = 55

1 tracker = 55
time_sec_start = 1685973702
time_sec_end = 1685973702
time_usec_start = 34977
time_usec_end = 61226

time_sec = 0
time_usec = 26249
time = 26

2 tracker = 26
time_sec_start = 1685973702
time_sec_end = 1685973702
time_usec_start = 4900
time_usec_end = 61530

time_sec = 0
time_usec = 56630
time = 56

3 tracker = 56
time_sec_start = 1685973702
time_sec_end = 1685973702
time_usec_start = 34974
time_usec_end = 61858

time_sec = 0
time_usec = 26884
time = 26

4 tracker = 26
time_sec_start = 1685973702
time_sec_end = 1685973702
time_usec_start = 4911
time_usec_end = 62188

time_sec = 0
time_usec = 57277
time = 57

1 tracker = 57
time_sec_start = 1685973702
time_sec_end = 1685973702
time_usec_start = 34977
time_usec_end = 62527

time_sec = 0
time_usec = 27550
time = 27

2 tracker = 27
time_sec_start = 1685973702
time_sec_end = 1685973702
time_usec_start = 4900
time_usec_end = 62858

time_sec = 0
time_usec = 57958
time = 57

3 tracker = 57
time_sec_start = 1685973702
time_sec_end = 1685973702
time_usec_start = 34974
time_usec_end = 63187

time_sec = 0
time_usec = 28213
time = 28

4 tracker = 28
time_sec_start = 1685973702
time_sec_end = 1685973702
time_usec_start = 4911
time_usec_end = 63516

time_sec = 0
time_usec = 58605
time = 58

1 tracker = 58
time_sec_start = 1685973702
time_sec_end = 1685973702
time_usec_start = 34977
time_usec_end = 63845

time_sec = 0
time_usec = 28868
time = 28

2 tracker = 28
time_sec_start = 1685973702
time_sec_end = 1685973702
time_usec_start = 4900
time_usec_end = 64181

time_sec = 0
time_usec = 59281
time = 59

3 tracker = 59
time_sec_start = 1685973702
time_sec_end = 1685973702
time_usec_start = 34974
time_usec_end = 64486

time_sec = 0
time_usec = 29512
time = 29

4 tracker = 29
time_sec_start = 1685973702
time_sec_end = 1685973702
time_usec_start = 4911
time_usec_end = 64823

time_sec = 0
time_usec = 59912
time = 59

1 tracker = 59
[36m121 ms[0m	|2|	is sleeping
[36m121 ms[0m	|1|	is thinking
[36m121 ms[0m	|1|	has taken a fork
[36m121 ms[0m	|1|	is eating
[36m121 ms[0m	|4|	is sleeping
[36m121 ms[0m	|3|	is thinking
[36m121 ms[0m	|3|	has taken a fork
[36m121 ms[0m	|3|	is eating
time_sec_start = 1685973702
time_sec_end = 1685973702
time_usec_start = 34977
time_usec_end = 65155

time_sec = 0
time_usec = 30178
time = 30

2 tracker = 30
time_sec_start = 1685973702
time_sec_end = 1685973702
time_usec_start = 65149
time_usec_end = 65418

time_sec = 0
time_usec = 269
time = 0

3 tracker = 0
time_sec_start = 1685973702
time_sec_end = 1685973702
time_usec_start = 34974
time_usec_end = 65746

time_sec = 0
time_usec = 30772
time = 30

4 tracker = 30
time_sec_start = 1685973702
time_sec_end = 1685973702
time_usec_start = 65068
time_usec_end = 66074

time_sec = 0
time_usec = 1006
time = 1

1 tracker = 1
time_sec_start = 1685973702
time_sec_end = 1685973702
time_usec_start = 34977
time_usec_end = 66409

time_sec = 0
time_usec = 31432
time = 31

2 tracker = 31
time_sec_start = 1685973702
time_sec_end = 1685973702
time_usec_start = 65149
time_usec_end = 66743

time_sec = 0
time_usec = 1594
time = 1

3 tracker = 1
time_sec_start = 1685973702
time_sec_end = 1685973702
time_usec_start = 34974
time_usec_end = 67080

time_sec = 0
time_usec = 32106
time = 32

4 tracker = 32
time_sec_start = 1685973702
time_sec_end = 1685973702
time_usec_start = 65068
time_usec_end = 67415

time_sec = 0
time_usec = 2347
time = 2

1 tracker = 2
time_sec_start = 1685973702
time_sec_end = 1685973702
time_usec_start = 34977
time_usec_end = 67750

time_sec = 0
time_usec = 32773
time = 32

2 tracker = 32
time_sec_start = 1685973702
time_sec_end = 1685973702
time_usec_start = 65149
time_usec_end = 68085

time_sec = 0
time_usec = 2936
time = 2

3 tracker = 2
time_sec_start = 1685973702
time_sec_end = 1685973702
time_usec_start = 34974
time_usec_end = 68420

time_sec = 0
time_usec = 33446
time = 33

4 tracker = 33
time_sec_start = 1685973702
time_sec_end = 1685973702
time_usec_start = 65068
time_usec_end = 68755

time_sec = 0
time_usec = 3687
time = 3

1 tracker = 3
time_sec_start = 1685973702
time_sec_end = 1685973702
time_usec_start = 34977
time_usec_end = 69090

time_sec = 0
time_usec = 34113
time = 34

2 tracker = 34
time_sec_start = 1685973702
time_sec_end = 1685973702
time_usec_start = 65149
time_usec_end = 69424

time_sec = 0
time_usec = 4275
time = 4

3 tracker = 4
time_sec_start = 1685973702
time_sec_end = 1685973702
time_usec_start = 34974
time_usec_end = 69760

time_sec = 0
time_usec = 34786
time = 34

4 tracker = 34
time_sec_start = 1685973702
time_sec_end = 1685973702
time_usec_start = 65068
time_usec_end = 70095

time_sec = 0
time_usec = 5027
time = 5

1 tracker = 5
time_sec_start = 1685973702
time_sec_end = 1685973702
time_usec_start = 34977
time_usec_end = 70433

time_sec = 0
time_usec = 35456
time = 35

2 tracker = 35
time_sec_start = 1685973702
time_sec_end = 1685973702
time_usec_start = 65149
time_usec_end = 70770

time_sec = 0
time_usec = 5621
time = 5

3 tracker = 5
time_sec_start = 1685973702
time_sec_end = 1685973702
time_usec_start = 34974
time_usec_end = 71107

time_sec = 0
time_usec = 36133
time = 36

4 tracker = 36
time_sec_start = 1685973702
time_sec_end = 1685973702
time_usec_start = 65068
time_usec_end = 71442

time_sec = 0
time_usec = 6374
time = 6

1 tracker = 6
time_sec_start = 1685973702
time_sec_end = 1685973702
time_usec_start = 34977
time_usec_end = 71777

time_sec = 0
time_usec = 36800
time = 36

2 tracker = 36
time_sec_start = 1685973702
time_sec_end = 1685973702
time_usec_start = 65149
time_usec_end = 72114

time_sec = 0
time_usec = 6965
time = 6

3 tracker = 6
time_sec_start = 1685973702
time_sec_end = 1685973702
time_usec_start = 34974
time_usec_end = 72449

time_sec = 0
time_usec = 37475
time = 37

4 tracker = 37
time_sec_start = 1685973702
time_sec_end = 1685973702
time_usec_start = 65068
time_usec_end = 72784

time_sec = 0
time_usec = 7716
time = 7

1 tracker = 7
time_sec_start = 1685973702
time_sec_end = 1685973702
time_usec_start = 34977
time_usec_end = 73121

time_sec = 0
time_usec = 38144
time = 38

2 tracker = 38
time_sec_start = 1685973702
time_sec_end = 1685973702
time_usec_start = 65149
time_usec_end = 73427

time_sec = 0
time_usec = 8278
time = 8

3 tracker = 8
time_sec_start = 1685973702
time_sec_end = 1685973702
time_usec_start = 34974
time_usec_end = 73762

time_sec = 0
time_usec = 38788
time = 38

4 tracker = 38
time_sec_start = 1685973702
time_sec_end = 1685973702
time_usec_start = 65068
time_usec_end = 74099

time_sec = 0
time_usec = 9031
time = 9

1 tracker = 9
time_sec_start = 1685973702
time_sec_end = 1685973702
time_usec_start = 34977
time_usec_end = 74435

time_sec = 0
time_usec = 39458
time = 39

2 tracker = 39
time_sec_start = 1685973702
time_sec_end = 1685973702
time_usec_start = 65149
time_usec_end = 74770

time_sec = 0
time_usec = 9621
time = 9

3 tracker = 9
time_sec_start = 1685973702
time_sec_end = 1685973702
time_usec_start = 34974
time_usec_end = 75123

time_sec = 0
time_usec = 40149
time = 40

4 tracker = 40
time_sec_start = 1685973702
time_sec_end = 1685973702
time_usec_start = 65068
time_usec_end = 75451

time_sec = 0
time_usec = 10383
time = 10

1 tracker = 10
time_sec_start = 1685973702
time_sec_end = 1685973702
time_usec_start = 34977
time_usec_end = 75755

time_sec = 0
time_usec = 40778
time = 40

2 tracker = 40
time_sec_start = 1685973702
time_sec_end = 1685973702
time_usec_start = 65149
time_usec_end = 76059

time_sec = 0
time_usec = 10910
time = 10

3 tracker = 10
time_sec_start = 1685973702
time_sec_end = 1685973702
time_usec_start = 34974
time_usec_end = 76364

time_sec = 0
time_usec = 41390
time = 41

4 tracker = 41
time_sec_start = 1685973702
time_sec_end = 1685973702
time_usec_start = 65068
time_usec_end = 76667

time_sec = 0
time_usec = 11599
time = 11

1 tracker = 11
time_sec_start = 1685973702
time_sec_end = 1685973702
time_usec_start = 34977
time_usec_end = 76998

time_sec = 0
time_usec = 42021
time = 42

2 tracker = 42
time_sec_start = 1685973702
time_sec_end = 1685973702
time_usec_start = 65149
time_usec_end = 77337

time_sec = 0
time_usec = 12188
time = 12

3 tracker = 12
time_sec_start = 1685973702
time_sec_end = 1685973702
time_usec_start = 34974
time_usec_end = 77667

time_sec = 0
time_usec = 42693
time = 42

4 tracker = 42
time_sec_start = 1685973702
time_sec_end = 1685973702
time_usec_start = 65068
time_usec_end = 77995

time_sec = 0
time_usec = 12927
time = 12

1 tracker = 12
time_sec_start = 1685973702
time_sec_end = 1685973702
time_usec_start = 34977
time_usec_end = 78323

time_sec = 0
time_usec = 43346
time = 43

2 tracker = 43
time_sec_start = 1685973702
time_sec_end = 1685973702
time_usec_start = 65149
time_usec_end = 78651

time_sec = 0
time_usec = 13502
time = 13

3 tracker = 13
time_sec_start = 1685973702
time_sec_end = 1685973702
time_usec_start = 34974
time_usec_end = 78979

time_sec = 0
time_usec = 44005
time = 44

4 tracker = 44
time_sec_start = 1685973702
time_sec_end = 1685973702
time_usec_start = 65068
time_usec_end = 79307

time_sec = 0
time_usec = 14239
time = 14

1 tracker = 14
time_sec_start = 1685973702
time_sec_end = 1685973702
time_usec_start = 34977
time_usec_end = 79637

time_sec = 0
time_usec = 44660
time = 44

2 tracker = 44
time_sec_start = 1685973702
time_sec_end = 1685973702
time_usec_start = 65149
time_usec_end = 79979

time_sec = 0
time_usec = 14830
time = 14

3 tracker = 14
time_sec_start = 1685973702
time_sec_end = 1685973702
time_usec_start = 34974
time_usec_end = 80317

time_sec = 0
time_usec = 45343
time = 45

4 tracker = 45
time_sec_start = 1685973702
time_sec_end = 1685973702
time_usec_start = 65068
time_usec_end = 80646

time_sec = 0
time_usec = 15578
time = 15

1 tracker = 15
time_sec_start = 1685973702
time_sec_end = 1685973702
time_usec_start = 34977
time_usec_end = 80971

time_sec = 0
time_usec = 45994
time = 45

2 tracker = 45
time_sec_start = 1685973702
time_sec_end = 1685973702
time_usec_start = 65149
time_usec_end = 81308

time_sec = 0
time_usec = 16159
time = 16

3 tracker = 16
time_sec_start = 1685973702
time_sec_end = 1685973702
time_usec_start = 34974
time_usec_end = 81638

time_sec = 0
time_usec = 46664
time = 46

4 tracker = 46
time_sec_start = 1685973702
time_sec_end = 1685973702
time_usec_start = 65068
time_usec_end = 81973

time_sec = 0
time_usec = 16905
time = 16

1 tracker = 16
time_sec_start = 1685973702
time_sec_end = 1685973702
time_usec_start = 34977
time_usec_end = 82303

time_sec = 0
time_usec = 47326
time = 47

2 tracker = 47
time_sec_start = 1685973702
time_sec_end = 1685973702
time_usec_start = 65149
time_usec_end = 82631

time_sec = 0
time_usec = 17482
time = 17

3 tracker = 17
time_sec_start = 1685973702
time_sec_end = 1685973702
time_usec_start = 34974
time_usec_end = 82965

time_sec = 0
time_usec = 47991
time = 47

4 tracker = 47
time_sec_start = 1685973702
time_sec_end = 1685973702
time_usec_start = 65068
time_usec_end = 83300

time_sec = 0
time_usec = 18232
time = 18

1 tracker = 18
time_sec_start = 1685973702
time_sec_end = 1685973702
time_usec_start = 34977
time_usec_end = 83635

time_sec = 0
time_usec = 48658
time = 48

2 tracker = 48
time_sec_start = 1685973702
time_sec_end = 1685973702
time_usec_start = 65149
time_usec_end = 83971

time_sec = 0
time_usec = 18822
time = 18

3 tracker = 18
time_sec_start = 1685973702
time_sec_end = 1685973702
time_usec_start = 34974
time_usec_end = 84305

time_sec = 0
time_usec = 49331
time = 49

4 tracker = 49
time_sec_start = 1685973702
time_sec_end = 1685973702
time_usec_start = 65068
time_usec_end = 84640

time_sec = 0
time_usec = 19572
time = 19

1 tracker = 19
time_sec_start = 1685973702
time_sec_end = 1685973702
time_usec_start = 34977
time_usec_end = 84975

time_sec = 0
time_usec = 49998
time = 49

2 tracker = 49
time_sec_start = 1685973702
time_sec_end = 1685973702
time_usec_start = 65149
time_usec_end = 85310

time_sec = 0
time_usec = 20161
time = 20

3 tracker = 20
time_sec_start = 1685973702
time_sec_end = 1685973702
time_usec_start = 34974
time_usec_end = 85639

time_sec = 0
time_usec = 50665
time = 50

4 tracker = 50
time_sec_start = 1685973702
time_sec_end = 1685973702
time_usec_start = 65068
time_usec_end = 85974

time_sec = 0
time_usec = 20906
time = 20

1 tracker = 20
time_sec_start = 1685973702
time_sec_end = 1685973702
time_usec_start = 34977
time_usec_end = 86309

time_sec = 0
time_usec = 51332
time = 51

2 tracker = 51
time_sec_start = 1685973702
time_sec_end = 1685973702
time_usec_start = 65149
time_usec_end = 86648

time_sec = 0
time_usec = 21499
time = 21

3 tracker = 21
time_sec_start = 1685973702
time_sec_end = 1685973702
time_usec_start = 34974
time_usec_end = 86983

time_sec = 0
time_usec = 52009
time = 52

4 tracker = 52
time_sec_start = 1685973702
time_sec_end = 1685973702
time_usec_start = 65068
time_usec_end = 87323

time_sec = 0
time_usec = 22255
time = 22

1 tracker = 22
time_sec_start = 1685973702
time_sec_end = 1685973702
time_usec_start = 34977
time_usec_end = 87628

time_sec = 0
time_usec = 52651
time = 52

2 tracker = 52
time_sec_start = 1685973702
time_sec_end = 1685973702
time_usec_start = 65149
time_usec_end = 87964

time_sec = 0
time_usec = 22815
time = 22

3 tracker = 22
time_sec_start = 1685973702
time_sec_end = 1685973702
time_usec_start = 34974
time_usec_end = 88302

time_sec = 0
time_usec = 53328
time = 53

4 tracker = 53
time_sec_start = 1685973702
time_sec_end = 1685973702
time_usec_start = 65068
time_usec_end = 88643

time_sec = 0
time_usec = 23575
time = 23

1 tracker = 23
time_sec_start = 1685973702
time_sec_end = 1685973702
time_usec_start = 34977
time_usec_end = 88986

time_sec = 0
time_usec = 54009
time = 54

2 tracker = 54
time_sec_start = 1685973702
time_sec_end = 1685973702
time_usec_start = 65149
time_usec_end = 89323

time_sec = 0
time_usec = 24174
time = 24

3 tracker = 24
time_sec_start = 1685973702
time_sec_end = 1685973702
time_usec_start = 34974
time_usec_end = 89654

time_sec = 0
time_usec = 54680
time = 54

4 tracker = 54
time_sec_start = 1685973702
time_sec_end = 1685973702
time_usec_start = 65068
time_usec_end = 89983

time_sec = 0
time_usec = 24915
time = 24

1 tracker = 24
time_sec_start = 1685973702
time_sec_end = 1685973702
time_usec_start = 34977
time_usec_end = 90315

time_sec = 0
time_usec = 55338
time = 55

2 tracker = 55
time_sec_start = 1685973702
time_sec_end = 1685973702
time_usec_start = 65149
time_usec_end = 90667

time_sec = 0
time_usec = 25518
time = 25

3 tracker = 25
time_sec_start = 1685973702
time_sec_end = 1685973702
time_usec_start = 34974
time_usec_end = 91002

time_sec = 0
time_usec = 56028
time = 56

4 tracker = 56
time_sec_start = 1685973702
time_sec_end = 1685973702
time_usec_start = 65068
time_usec_end = 91337

time_sec = 0
time_usec = 26269
time = 26

1 tracker = 26
time_sec_start = 1685973702
time_sec_end = 1685973702
time_usec_start = 34977
time_usec_end = 91672

time_sec = 0
time_usec = 56695
time = 56

2 tracker = 56
time_sec_start = 1685973702
time_sec_end = 1685973702
time_usec_start = 65149
time_usec_end = 92007

time_sec = 0
time_usec = 26858
time = 26

3 tracker = 26
time_sec_start = 1685973702
time_sec_end = 1685973702
time_usec_start = 34974
time_usec_end = 92343

time_sec = 0
time_usec = 57369
time = 57

4 tracker = 57
time_sec_start = 1685973702
time_sec_end = 1685973702
time_usec_start = 65068
time_usec_end = 92681

time_sec = 0
time_usec = 27613
time = 27

1 tracker = 27
time_sec_start = 1685973702
time_sec_end = 1685973702
time_usec_start = 34977
time_usec_end = 93016

time_sec = 0
time_usec = 58039
time = 58

2 tracker = 58
time_sec_start = 1685973702
time_sec_end = 1685973702
time_usec_start = 65149
time_usec_end = 93351

time_sec = 0
time_usec = 28202
time = 28

3 tracker = 28
time_sec_start = 1685973702
time_sec_end = 1685973702
time_usec_start = 34974
time_usec_end = 93680

time_sec = 0
time_usec = 58706
time = 58

4 tracker = 58
time_sec_start = 1685973702
time_sec_end = 1685973702
time_usec_start = 65068
time_usec_end = 94014

time_sec = 0
time_usec = 28946
time = 28

1 tracker = 28
time_sec_start = 1685973702
time_sec_end = 1685973702
time_usec_start = 34977
time_usec_end = 94349

time_sec = 0
time_usec = 59372
time = 59

2 tracker = 59
time_sec_start = 1685973702
time_sec_end = 1685973702
time_usec_start = 65149
time_usec_end = 94685

time_sec = 0
time_usec = 29536
time = 29

3 tracker = 29
time_sec_start = 1685973702
time_sec_end = 1685973702
time_usec_start = 34974
time_usec_end = 95021

time_sec = 0
time_usec = 60047
time = 60

4 tracker = 60
[36m151 ms[0m	|2|	is thinking
[36m151 ms[0m	|1|	is sleeping
[36m151 ms[0m	|3|	is sleeping
[36m151 ms[0m	|4|	is thinking
[36m151 ms[0m	|4|	has taken a fork
[36m151 ms[0m	|4|	is eating
[36m151 ms[0m	|2|	has taken a fork
[36m151 ms[0m	|2|	is eating
time_sec_start = 1685973702
time_sec_end = 1685973702
time_usec_start = 65068
time_usec_end = 95356

time_sec = 0
time_usec = 30288
time = 30

1 tracker = 30
